{"type":"FeatureCollection","features":[{"type":"Feature","geometry":{"type":"Point","coordinates":[-1.7648184274237,53.166766051141]},"properties":{"sid":"76","title":"Gib Hill","sitetype":"Long Barrow","cond":"5","amb":"3","acc":"4","icon":"tr15"}},{"type":"Feature","geometry":{"type":"Point","coordinates":[-1.9130214619608,53.256674804171]},"properties":{"sid":"6824","title":"Buxton Museum & Art Gallery","sitetype":"Museum","cond":"5","amb":"5","acc":"5","icon":"tp38"}},{"type":"Feature","geometry":{"type":"Point","coordinates":[-2.2349448412291,53.465909594656]},"properties":{"sid":"6845","title":"Manchester Museum","sitetype":"Museum","cond":"5","amb":"5","acc":"5","icon":"tr38"}},{"type":"Feature","geometry":{"type":"Point","coordinates":[-2.4318925422455,53.576816394097]},"properties":{"sid":"6857","title":"Bolton Museum","sitetype":"Museum","cond":"5","amb":"5","acc":"5","icon":"tr38"}},{"type":"Feature","geometry":{"type":"Point","coordinates":[-1.491927115869,53.381395971443]},"properties":{"sid":"6890","title":"Weston Park Museum","sitetype":"Museum","cond":"5","amb":"5","acc":"5","icon":"tp38"}},{"type":"Feature","geometry":{"type":"Point","coordinates":[-1.9160158347207,53.258474699423]},"properties":{"sid":"8222","title":"St Ann's Well (Buxton)","sitetype":"Holy Well or Sacred Spring","cond":"5","amb":"4","acc":"5","icon":"tr45"}},{"type":"Feature","geometry":{"type":"Point","coordinates":[-1.73386179483,53.262432396]},"properties":{"sid":"14705","title":"Wardlow Hay Cop","sitetype":"Round Barrow(s)","cond":"5","amb":"4","acc":"5","icon":"tr18"}},{"type":"Feature","geometry":{"type":"Point","coordinates":[-1.8644134149044,53.459772524451]},"properties":{"sid":"16888","title":"Kissing Stones","sitetype":"Natural Stone \/ Erratic \/ Other Natural Feature","cond":"5","amb":"5","acc":"3","icon":"tr36"}},{"type":"Feature","geometry":{"type":"Point","coordinates":[-1.9006911639221,53.403180470344]},"properties":{"sid":"16894","title":"Cairn on Kinder Scout","sitetype":"Cairn","cond":"5","amb":"4","acc":"2","icon":"tg7"}},{"type":"Feature","geometry":{"type":"Point","coordinates":[-1.5764829947731,53.335056403289]},"properties":{"sid":"28648","title":"God's Spring","sitetype":"Holy Well or Sacred Spring","cond":"5","amb":"5","acc":"2","icon":"tr45"}},{"type":"Feature","geometry":{"type":"Point","coordinates":[-1.8901833507205,53.395081586168]},"properties":{"sid":"28649","title":"Mermaid's Pool","sitetype":"Holy Well or Sacred Spring","cond":"5","amb":"5","acc":"2","icon":"tr45"}},{"type":"Feature","geometry":{"type":"Point","coordinates":[-1.6542209625706,53.155215447313]},"properties":{"sid":"31834","title":"Rockingstone Farm","sitetype":"Rock Outcrop","cond":"5","amb":"4","acc":"3","icon":"tr37"}},{"type":"Feature","geometry":{"type":"Point","coordinates":[-1.7985070214906,53.383277115997]},"properties":{"sid":"32618","title":"Druids' Stone","sitetype":"Natural Stone \/ Erratic \/ Other Natural Feature","cond":"5","amb":"5","acc":"2","icon":"tr36"}},{"type":"Feature","geometry":{"type":"Point","coordinates":[-0.6333830367099,53.616536600688]},"properties":{"sid":"32710","title":"Dragonby","sitetype":"Natural Stone \/ Erratic \/ Other Natural Feature","cond":"5","amb":"3","acc":"4","icon":"tr36"}},{"type":"Feature","geometry":{"type":"Point","coordinates":[-2.0209112264272,53.187490489735]},"properties":{"sid":"33040","title":"Lud's Church","sitetype":"Natural Stone \/ Erratic \/ Other Natural Feature","cond":"5","amb":"5","acc":"4","icon":"tr36"}},{"type":"Feature","geometry":{"type":"Point","coordinates":[-1.5978777589048,53.295579878929]},"properties":{"sid":"34467","title":"The Hurkling Stone","sitetype":"Marker Stone","cond":"5","amb":"5","acc":"2","icon":"tr67"}},{"type":"Feature","geometry":{"type":"Point","coordinates":[-1.59878465348,53.294863828581]},"properties":{"sid":"34532","title":"White Edge Cairn","sitetype":"Cairn","cond":"5","amb":"0","acc":"1","icon":"tr7"}},{"type":"Feature","geometry":{"type":"Point","coordinates":[-1.8876756815987,53.204518528454]},"properties":{"sid":"35279","title":"Etches cave","sitetype":"Cave or Rock Shelter","cond":"5","amb":"5","acc":"4","icon":"tr35"}},{"type":"Feature","geometry":{"type":"Point","coordinates":[-1.9924829273995,53.153334310517]},"properties":{"sid":"43286","title":"The Roaches","sitetype":"Natural Stone \/ Erratic \/ Other Natural Feature","cond":"5","amb":"5","acc":"3","icon":"tr36"}},{"type":"Feature","geometry":{"type":"Point","coordinates":[-1.5869577436225,53.276666117693]},"properties":{"sid":"49390","title":"Barbrook Cupmarked Stone","sitetype":"Rock Art","cond":"5","amb":"5","acc":"3","icon":"tr29"}},{"type":"Feature","geometry":{"type":"Point","coordinates":[-1.988347468368,53.410357907814]},"properties":{"sid":"53550","title":"Ringstones (new circle at Near Slack Farm)","sitetype":"Modern Stone Circle etc","cond":"5","amb":"0","acc":"4","icon":"tr60"}},{"type":"Feature","geometry":{"type":"Point","coordinates":[-1.6450392907941,53.162451546823]},"properties":{"sid":"61","title":"Doll Tor","sitetype":"Stone Circle","cond":"4","amb":"4","acc":"4","icon":"tr23"}},{"type":"Feature","geometry":{"type":"Point","coordinates":[-1.6288387009537,53.167948395332]},"properties":{"sid":"125","title":"Nine Ladies","sitetype":"Stone Circle","cond":"4","amb":"4","acc":"3","icon":"tr23"}},{"type":"Feature","geometry":{"type":"Point","coordinates":[-1.6692670425456,53.35719192453]},"properties":{"sid":"296","title":"Bamford Moor South","sitetype":"Stone Circle","cond":"4","amb":"4","acc":"2","icon":"tr23"}},{"type":"Feature","geometry":{"type":"Point","coordinates":[-1.5838103225232,53.276475405811]},"properties":{"sid":"297","title":"Barbrook 1","sitetype":"Stone Circle","cond":"4","amb":"5","acc":"4","icon":"tr23"}},{"type":"Feature","geometry":{"type":"Point","coordinates":[-1.5852890517242,53.278637868218]},"properties":{"sid":"298","title":"Barbrook 2","sitetype":"Stone Circle","cond":"4","amb":"3","acc":"3","icon":"tr23"}},{"type":"Feature","geometry":{"type":"Point","coordinates":[-1.6270542312594,53.287494821703]},"properties":{"sid":"307","title":"Stoke Flat","sitetype":"Stone Circle","cond":"4","amb":"4","acc":"4","icon":"tr23"}},{"type":"Feature","geometry":{"type":"Point","coordinates":[-1.580525538238,53.229002785089]},"properties":{"sid":"309","title":"Gibbet Moor North","sitetype":"Stone Circle","cond":"4","amb":"4","acc":"2","icon":"tr23"}},{"type":"Feature","geometry":{"type":"Point","coordinates":[-2.01951951279,53.4149050126]},"properties":{"sid":"4999","title":"Brown Low","sitetype":"Round Barrow(s)","cond":"4","amb":"3","acc":"4","icon":"tr18"}},{"type":"Feature","geometry":{"type":"Point","coordinates":[-1.853281797407,53.192795690673]},"properties":{"sid":"5422","title":"Fox Hole Cave","sitetype":"Cave or Rock Shelter","cond":"4","amb":"4","acc":"0","icon":"tr35"}},{"type":"Feature","geometry":{"type":"Point","coordinates":[-2.02398294394,53.3268158975]},"properties":{"sid":"5433","title":"The Murder Stone","sitetype":"Standing Stone (Menhir)","cond":"4","amb":"4","acc":"2","icon":"tr21"}},{"type":"Feature","geometry":{"type":"Point","coordinates":[-1.48092517563,53.1656880998]},"properties":{"sid":"5451","title":"Ashover School","sitetype":"Rock Art","cond":"4","amb":"2","acc":"4","icon":"tr29"}},{"type":"Feature","geometry":{"type":"Point","coordinates":[-2.23677237372,53.252875203]},"properties":{"sid":"5454","title":"Capesthorne Hall (NE)","sitetype":"Round Barrow(s)","cond":"4","amb":"3","acc":"5","icon":"tr18"}},{"type":"Feature","geometry":{"type":"Point","coordinates":[-1.92042969014,53.3034214161]},"properties":{"sid":"5483","title":"Castle Naze","sitetype":"Hillfort","cond":"4","amb":"4","acc":"3","icon":"tr13"}},{"type":"Feature","geometry":{"type":"Point","coordinates":[-2.091255710086,53.191052774533]},"properties":{"sid":"5529","title":"Bosley Minn 2 & 3","sitetype":"Standing Stones","cond":"4","amb":"4","acc":"4","icon":"tr22"}},{"type":"Feature","geometry":{"type":"Point","coordinates":[-1.582282364965,53.197763509485]},"properties":{"sid":"5534","title":"Beeley Triple Cairn","sitetype":"Ring Cairn","cond":"4","amb":"4","acc":"2","icon":"tr28"}},{"type":"Feature","geometry":{"type":"Point","coordinates":[-2.0449588343,53.2854617715]},"properties":{"sid":"5536","title":"Blue Boar Farm","sitetype":"Round Barrow(s)","cond":"4","amb":"3","acc":"5","icon":"tr18"}},{"type":"Feature","geometry":{"type":"Point","coordinates":[-2.2100011784157,53.295172616848]},"properties":{"sid":"5548","title":"Engine Vein, Alderley Edge Copper Mines","sitetype":"Ancient Mine, Quarry or other Industry","cond":"4","amb":"3","acc":"4","icon":"tr31"}},{"type":"Feature","geometry":{"type":"Point","coordinates":[-2.0912595383095,53.192850546742]},"properties":{"sid":"5590","title":"Bosley Minn 4 & 5","sitetype":"Standing Stones","cond":"4","amb":"4","acc":"4","icon":"tr22"}},{"type":"Feature","geometry":{"type":"Point","coordinates":[-1.9956709698448,53.280139955773]},"properties":{"sid":"5594","title":"Foxlowe Edge","sitetype":"Standing Stone (Menhir)","cond":"4","amb":"4","acc":"4","icon":"tr21"}},{"type":"Feature","geometry":{"type":"Point","coordinates":[-2.06888838693,53.242304225]},"properties":{"sid":"5598","title":"Higher Ridgegate","sitetype":"Standing Stone (Menhir)","cond":"4","amb":"3","acc":"5","icon":"tr21"}},{"type":"Feature","geometry":{"type":"Point","coordinates":[-2.14206441647,53.1676317772]},"properties":{"sid":"6216","title":"Bosley Cloud (2)","sitetype":"Standing Stone (Menhir)","cond":"4","amb":"3","acc":"3","icon":"tr21"}},{"type":"Feature","geometry":{"type":"Point","coordinates":[-1.6373282820505,53.161664273261]},"properties":{"sid":"6260","title":"Cork Stone","sitetype":"Natural Stone \/ Erratic \/ Other Natural Feature","cond":"4","amb":"3","acc":"4","icon":"tr36"}},{"type":"Feature","geometry":{"type":"Point","coordinates":[-1.6420241076862,53.163521205989]},"properties":{"sid":"6262","title":"Andle Stone (Stanton Moor)","sitetype":"Natural Stone \/ Erratic \/ Other Natural Feature","cond":"4","amb":"3","acc":"4","icon":"tr36"}},{"type":"Feature","geometry":{"type":"Point","coordinates":[-1.6649642824612,53.158257432753]},"properties":{"sid":"6263","title":"Robin Hood's Stride","sitetype":"Rock Outcrop","cond":"4","amb":"4","acc":"3","icon":"tr37"}},{"type":"Feature","geometry":{"type":"Point","coordinates":[-1.62604271707,53.1626361666]},"properties":{"sid":"6925","title":"Gorse Stone","sitetype":"Rock Outcrop","cond":"4","amb":"4","acc":"3","icon":"tr37"}},{"type":"Feature","geometry":{"type":"Point","coordinates":[-1.53188715034,53.1560112572]},"properties":{"sid":"6927","title":"Cuckoo Stone (Derbyshire)","sitetype":"Natural Stone \/ Erratic \/ Other Natural Feature","cond":"4","amb":"0","acc":"4","icon":"tr36"}},{"type":"Feature","geometry":{"type":"Point","coordinates":[-1.6654234036207,53.156910377151]},"properties":{"sid":"6930","title":"Robin Hood's Stride","sitetype":"Rock Art","cond":"4","amb":"4","acc":"3","icon":"tr29"}},{"type":"Feature","geometry":{"type":"Point","coordinates":[-1.62301996951,53.1662222326]},"properties":{"sid":"6934","title":"Cat Stone","sitetype":"Rock Outcrop","cond":"4","amb":"4","acc":"3","icon":"tr37"}},{"type":"Feature","geometry":{"type":"Point","coordinates":[-1.2367466661058,53.270445177031]},"properties":{"sid":"7371","title":"Markland Grips Cave","sitetype":"Cave or Rock Shelter","cond":"4","amb":"4","acc":"3","icon":"tr35"}},{"type":"Feature","geometry":{"type":"Point","coordinates":[-1.79719128778,53.3437249267]},"properties":{"sid":"7375","title":"Treak Cliff Sepulchral Cave","sitetype":"Cave or Rock Shelter","cond":"4","amb":"5","acc":"3","icon":"tr35"}},{"type":"Feature","geometry":{"type":"Point","coordinates":[-2.38752891598,53.3495588398]},"properties":{"sid":"7469","title":"Rostherne Celtic Head","sitetype":"Sculptured Stone","cond":"4","amb":"3","acc":"4","icon":"tr44"}},{"type":"Feature","geometry":{"type":"Point","coordinates":[-2.13488761456,53.263820761]},"properties":{"sid":"7470","title":"West Park Boulder","sitetype":"Natural Stone \/ Erratic \/ Other Natural Feature","cond":"4","amb":"2","acc":"5","icon":"tr36"}},{"type":"Feature","geometry":{"type":"Point","coordinates":[-1.592978846086,53.25533834875]},"properties":{"sid":"7506","title":"Gardoms Edge Stone","sitetype":"Standing Stone (Menhir)","cond":"4","amb":"3","acc":"3","icon":"tr21"}},{"type":"Feature","geometry":{"type":"Point","coordinates":[-1.6744807305779,53.284127964787]},"properties":{"sid":"7747","title":"St Lawrence (Eyam)","sitetype":"Ancient Cross","cond":"4","amb":"3","acc":"4","icon":"tr46"}},{"type":"Feature","geometry":{"type":"Point","coordinates":[-2.21451103616,53.2969623282]},"properties":{"sid":"8086","title":"Wizard's Well","sitetype":"Holy Well or Sacred Spring","cond":"4","amb":"4","acc":"4","icon":"tr45"}},{"type":"Feature","geometry":{"type":"Point","coordinates":[-1.5118099836154,53.343798227449]},"properties":{"sid":"10278","title":"Ecclesall Woods","sitetype":"Rock Art","cond":"4","amb":"4","acc":"4","icon":"tr29"}},{"type":"Feature","geometry":{"type":"Point","coordinates":[-1.1993989276956,53.263009147563]},"properties":{"sid":"10666","title":"Creswell Crags","sitetype":"Cave or Rock Shelter","cond":"4","amb":"4","acc":"4","icon":"tr35"}},{"type":"Feature","geometry":{"type":"Point","coordinates":[-1.8111491043219,53.243972878077]},"properties":{"sid":"13291","title":"Blackwell","sitetype":"Modern Stone Circle etc","cond":"4","amb":"2","acc":"1","icon":"tr60"}},{"type":"Feature","geometry":{"type":"Point","coordinates":[-1.83067555543,53.2323167102]},"properties":{"sid":"13551","title":"Chelmorton Low","sitetype":"Round Barrow(s)","cond":"4","amb":"3","acc":"5","icon":"tr18"}},{"type":"Feature","geometry":{"type":"Point","coordinates":[-1.7480669473,53.2176089922]},"properties":{"sid":"14658","title":"Sheldon 1 (Derbyshire)","sitetype":"Round Barrow(s)","cond":"4","amb":"2","acc":"3","icon":"tr18"}},{"type":"Feature","geometry":{"type":"Point","coordinates":[-1.71846148278,53.2561947899]},"properties":{"sid":"14703","title":"Longstone Moor","sitetype":"Round Barrow(s)","cond":"4","amb":"5","acc":"5","icon":"tr18"}},{"type":"Feature","geometry":{"type":"Point","coordinates":[-1.9984515754,53.5780462991]},"properties":{"sid":"14820","title":"Jackson's Barrow","sitetype":"Round Barrow(s)","cond":"4","amb":"3","acc":"4","icon":"tr18"}},{"type":"Feature","geometry":{"type":"Point","coordinates":[-1.7791767636333,53.341895260451]},"properties":{"sid":"15124","title":"Lady's well (Cavedale)","sitetype":"Holy Well or Sacred Spring","cond":"4","amb":"5","acc":"4","icon":"tg45"}},{"type":"Feature","geometry":{"type":"Point","coordinates":[-1.6147766159,53.2515904649]},"properties":{"sid":"15172","title":"Lady Well Wall","sitetype":"Holy Well or Sacred Spring","cond":"4","amb":"4","acc":"5","icon":"tr45"}},{"type":"Feature","geometry":{"type":"Point","coordinates":[-1.9712307786054,53.158382897536]},"properties":{"sid":"15838","title":"The Winking Man","sitetype":"Natural Stone \/ Erratic \/ Other Natural Feature","cond":"4","amb":"5","acc":"2","icon":"tr36"}},{"type":"Feature","geometry":{"type":"Point","coordinates":[-1.9999597180494,53.169244917984]},"properties":{"sid":"16532","title":"Sainter's Dolmen","sitetype":"Rock Outcrop","cond":"4","amb":"5","acc":"3","icon":"tr37"}},{"type":"Feature","geometry":{"type":"Point","coordinates":[-1.9745267175703,53.174006369573]},"properties":{"sid":"16533","title":"The Bald Stone","sitetype":"Natural Stone \/ Erratic \/ Other Natural Feature","cond":"4","amb":"4","acc":"1","icon":"tr36"}},{"type":"Feature","geometry":{"type":"Point","coordinates":[-1.5829079415444,53.276741919522]},"properties":{"sid":"16887","title":"Barbrook cairn","sitetype":"Cairn","cond":"4","amb":"3","acc":"4","icon":"tr7"}},{"type":"Feature","geometry":{"type":"Point","coordinates":[-2.0901366048934,53.15707557615]},"properties":{"sid":"17361","title":"St Helen's Well (Rushton Spencer)","sitetype":"Holy Well or Sacred Spring","cond":"4","amb":"4","acc":"5","icon":"tr45"}},{"type":"Feature","geometry":{"type":"Point","coordinates":[-1.6740632118461,53.358733180021]},"properties":{"sid":"22979","title":"Stone on Bamford Moor","sitetype":"Standing Stone (Menhir)","cond":"4","amb":"4","acc":"3","icon":"tr21"}},{"type":"Feature","geometry":{"type":"Point","coordinates":[-1.2299162082225,53.48343642858]},"properties":{"sid":"26833","title":"St Peter's Minster (Conisbrough)","sitetype":"Sculptured Stone","cond":"4","amb":"4","acc":"5","icon":"tr44"}},{"type":"Feature","geometry":{"type":"Point","coordinates":[-1.8145107212761,53.159482762179]},"properties":{"sid":"18393","title":"Lud well (Hartington)","sitetype":"Holy Well or Sacred Spring","cond":"4","amb":"4","acc":"5","icon":"tr45"}},{"type":"Feature","geometry":{"type":"Point","coordinates":[-1.6625241628705,53.278701489587]},"properties":{"sid":"18441","title":"Eyam Boundary Stone","sitetype":"Marker Stone","cond":"4","amb":"5","acc":"4","icon":"tr67"}},{"type":"Feature","geometry":{"type":"Point","coordinates":[-0.87870266954612,53.29327177331]},"properties":{"sid":"18463","title":"Lady well (Headon)","sitetype":"Holy Well or Sacred Spring","cond":"4","amb":"4","acc":"4","icon":"tr45"}},{"type":"Feature","geometry":{"type":"Point","coordinates":[-1.7956506733714,53.351812089133]},"properties":{"sid":"18533","title":"Russet Well","sitetype":"Holy Well or Sacred Spring","cond":"4","amb":"4","acc":"1","icon":"tr45"}},{"type":"Feature","geometry":{"type":"Point","coordinates":[-1.6487791746222,53.4916923124]},"properties":{"sid":"18665","title":"St James's Well (Midhopestones)","sitetype":"Holy Well or Sacred Spring","cond":"4","amb":"5","acc":"4","icon":"tr45"}},{"type":"Feature","geometry":{"type":"Point","coordinates":[-1.6022366884492,53.310875385525]},"properties":{"sid":"18671","title":"Little John's Well (Hathersage)","sitetype":"Holy Well or Sacred Spring","cond":"4","amb":"5","acc":"3","icon":"tr45"}},{"type":"Feature","geometry":{"type":"Point","coordinates":[-1.5369644295773,53.326154650572]},"properties":{"sid":"18768","title":"Peace Well","sitetype":"Holy Well or Sacred Spring","cond":"4","amb":"4","acc":"5","icon":"tp45"}},{"type":"Feature","geometry":{"type":"Point","coordinates":[-1.9187964752068,53.373531810165]},"properties":{"sid":"20332","title":"White Lady standing stone","sitetype":"Standing Stone (Menhir)","cond":"4","amb":"4","acc":"4","icon":"tr21"}},{"type":"Feature","geometry":{"type":"Point","coordinates":[-0.85484397937157,53.253006963525]},"properties":{"sid":"22902","title":"Kingshaugh","sitetype":"Hillfort","cond":"4","amb":"4","acc":"5","icon":"tr13"}},{"type":"Feature","geometry":{"type":"Point","coordinates":[-2.1586748282999,53.613444406222]},"properties":{"sid":"26279","title":"Broadfield Park Glacial Boulder","sitetype":"Natural Stone \/ Erratic \/ Other Natural Feature","cond":"4","amb":"4","acc":"5","icon":"tr36"}},{"type":"Feature","geometry":{"type":"Point","coordinates":[-2.0089635122128,53.301649680731]},"properties":{"sid":"27854","title":"Windgather Rocks Cup-Mark Stone","sitetype":"Rock Art","cond":"4","amb":"4","acc":"4","icon":"tg29"}},{"type":"Feature","geometry":{"type":"Point","coordinates":[-1.8561219811447,53.238642254041]},"properties":{"sid":"28326","title":"Hob Thirst's Cave","sitetype":"Cave or Rock Shelter","cond":"4","amb":"5","acc":"2","icon":"tr35"}},{"type":"Feature","geometry":{"type":"Point","coordinates":[-1.5788283599413,53.249311648886]},"properties":{"sid":"29679","title":"Birchen Edge Stone","sitetype":"Natural Stone \/ Erratic \/ Other Natural Feature","cond":"4","amb":"5","acc":"3","icon":"tr36"}},{"type":"Feature","geometry":{"type":"Point","coordinates":[-1.7520335302895,53.308763613933]},"properties":{"sid":"31202","title":"Cop Low","sitetype":"Round Barrow(s)","cond":"4","amb":"3","acc":"4","icon":"tr18"}},{"type":"Feature","geometry":{"type":"Point","coordinates":[-2.0405884642803,53.640570522287]},"properties":{"sid":"33445","title":"Blackstone Edge","sitetype":"Rock Art","cond":"4","amb":"0","acc":"2","icon":"tr29"}},{"type":"Feature","geometry":{"type":"Point","coordinates":[-1.9413518089977,53.377437033841]},"properties":{"sid":"33719","title":"Watery Hey Well","sitetype":"Holy Well or Sacred Spring","cond":"4","amb":"4","acc":"4","icon":"tr45"}},{"type":"Feature","geometry":{"type":"Point","coordinates":[-1.6349325867021,53.348732450499]},"properties":{"sid":"34059","title":"Robin Hood's Cave","sitetype":"Cave or Rock Shelter","cond":"4","amb":"4","acc":"3","icon":"tr35"}},{"type":"Feature","geometry":{"type":"Point","coordinates":[-2.273411400004,53.614944819155]},"properties":{"sid":"44660","title":"Walmersley Golf Club stone","sitetype":"Modern Stone Circle etc","cond":"4","amb":"3","acc":"3","icon":"tr60"}},{"type":"Feature","geometry":{"type":"Point","coordinates":[-2.0541532512252,53.662118775461]},"properties":{"sid":"46867","title":"Cow Head (Blackstone Edge)","sitetype":"Rock Art","cond":"4","amb":"0","acc":"0","icon":"tr29"}},{"type":"Feature","geometry":{"type":"Point","coordinates":[-1.7897985177327,53.237222546652]},"properties":{"sid":"52180","title":"Taddington High Well","sitetype":"Holy Well or Sacred Spring","cond":"4","amb":"4","acc":"3","icon":"tr45"}},{"type":"Feature","geometry":{"type":"Point","coordinates":[-1.7616658149888,53.168827246282]},"properties":{"sid":"3","title":"Arbor Low 1","sitetype":"Stone Circle","cond":"3","amb":"5","acc":"4","icon":"tr23"}},{"type":"Feature","geometry":{"type":"Point","coordinates":[-1.7147750385905,53.179331243545]},"properties":{"sid":"17","title":"Bee Lowe","sitetype":"Round Cairn","cond":"3","amb":"3","acc":"3","icon":"tg19"}},{"type":"Feature","geometry":{"type":"Point","coordinates":[-1.8158873422372,53.236285855842]},"properties":{"sid":"75","title":"Five Wells","sitetype":"Chambered Tomb","cond":"3","amb":"4","acc":"4","icon":"tr8"}},{"type":"Feature","geometry":{"type":"Point","coordinates":[-1.6643939300989,53.160440146872]},"properties":{"sid":"126","title":"Nine Stones Close","sitetype":"Stone Circle","cond":"3","amb":"4","acc":"5","icon":"tr23"}},{"type":"Feature","geometry":{"type":"Point","coordinates":[-1.6304987607873,53.166245649658]},"properties":{"sid":"154","title":"Stanton Moor 3","sitetype":"Stone Circle","cond":"3","amb":"2","acc":"3","icon":"tr23"}},{"type":"Feature","geometry":{"type":"Point","coordinates":[-1.8836718929035,53.301054251006]},"properties":{"sid":"163","title":"Bullring","sitetype":"Henge","cond":"3","amb":"3","acc":"5","icon":"tr11"}},{"type":"Feature","geometry":{"type":"Point","coordinates":[-1.5764612958221,53.291730512229]},"properties":{"sid":"299","title":"Barbrook 3","sitetype":"Stone Circle","cond":"3","amb":"3","acc":"3","icon":"tr23"}},{"type":"Feature","geometry":{"type":"Point","coordinates":[-1.6428155015941,53.465967577222]},"properties":{"sid":"303","title":"Ewden Beck","sitetype":"Stone Circle","cond":"3","amb":"2","acc":"3","icon":"tr23"}},{"type":"Feature","geometry":{"type":"Point","coordinates":[-1.6630479206763,53.307467011384]},"properties":{"sid":"304","title":"Wet Withens","sitetype":"Stone Circle","cond":"3","amb":"5","acc":"1","icon":"tr23"}},{"type":"Feature","geometry":{"type":"Point","coordinates":[-1.5814609851147,53.212942914233]},"properties":{"sid":"312","title":"Park Gate","sitetype":"Stone Circle","cond":"3","amb":"3","acc":"3","icon":"tr23"}},{"type":"Feature","geometry":{"type":"Point","coordinates":[-1.5747651595552,53.205611237113]},"properties":{"sid":"317","title":"Beeley Moor South","sitetype":"Ring Cairn","cond":"3","amb":"2","acc":"2","icon":"tr28"}},{"type":"Feature","geometry":{"type":"Point","coordinates":[-1.5908312488946,53.247915204234]},"properties":{"sid":"324","title":"Gardoms Edge Ringcairn","sitetype":"Ring Cairn","cond":"3","amb":"2","acc":"4","icon":"tr28"}},{"type":"Feature","geometry":{"type":"Point","coordinates":[-1.5710348140891,53.219350911391]},"properties":{"sid":"331","title":"Hob Hurst's House","sitetype":"Round Barrow(s)","cond":"3","amb":"1","acc":"3","icon":"tr18"}},{"type":"Feature","geometry":{"type":"Point","coordinates":[-1.9116222382058,53.2081341823]},"properties":{"sid":"32983","title":"Hollins Hill","sitetype":"Cairn","cond":"3","amb":"5","acc":"4","icon":"tr7"}},{"type":"Feature","geometry":{"type":"Point","coordinates":[-1.6768357404272,53.369616981693]},"properties":{"sid":"1152","title":"Moscar Moor","sitetype":"Stone Circle","cond":"3","amb":"0","acc":"2","icon":"tr23"}},{"type":"Feature","geometry":{"type":"Point","coordinates":[-1.7621120923596,53.169277583788]},"properties":{"sid":"1734","title":"Arbor Low Earthwork","sitetype":"Multiple Stone Rows \/ Avenue","cond":"3","amb":"4","acc":"5","icon":"tr16"}},{"type":"Feature","geometry":{"type":"Point","coordinates":[-1.59429988158,53.2551271161]},"properties":{"sid":"2255","title":"Gardoms Edge Enclosure","sitetype":"Causewayed Enclosure","cond":"3","amb":"3","acc":"3","icon":"tr47"}},{"type":"Feature","geometry":{"type":"Point","coordinates":[-1.5925002716048,53.253646812841]},"properties":{"sid":"2256","title":"Gardoms Edge 1","sitetype":"Rock Art","cond":"3","amb":"1","acc":"2","icon":"tr29"}},{"type":"Feature","geometry":{"type":"Point","coordinates":[-1.59438112932,53.2512891563]},"properties":{"sid":"2257","title":"Three Men of Gardoms","sitetype":"Round Barrow(s)","cond":"3","amb":"3","acc":"4","icon":"tr18"}},{"type":"Feature","geometry":{"type":"Point","coordinates":[-2.0179811035409,53.511387401491]},"properties":{"sid":"4774","title":"Buckton Castle","sitetype":"Hillfort","cond":"3","amb":"0","acc":"3","icon":"tg13"}},{"type":"Feature","geometry":{"type":"Point","coordinates":[-2.2964298006812,53.642483889952]},"properties":{"sid":"4780","title":"Whitelow","sitetype":"Cairn","cond":"3","amb":"4","acc":"5","icon":"tr7"}},{"type":"Feature","geometry":{"type":"Point","coordinates":[-2.0168128874663,53.418590728222]},"properties":{"sid":"4998","title":"Ludworth Intake","sitetype":"Round Barrow(s)","cond":"3","amb":"2","acc":"3","icon":"tr18"}},{"type":"Feature","geometry":{"type":"Point","coordinates":[-1.40666719846,53.4520852817]},"properties":{"sid":"5168","title":"Scholes Wood","sitetype":"Hillfort","cond":"3","amb":"3","acc":"4","icon":"tr13"}},{"type":"Feature","geometry":{"type":"Point","coordinates":[-1.432767406117,53.414459729003]},"properties":{"sid":"5169","title":"Wincobank","sitetype":"Hillfort","cond":"3","amb":"2","acc":"2","icon":"tr13"}},{"type":"Feature","geometry":{"type":"Point","coordinates":[-1.7701532991389,53.623216816291]},"properties":{"sid":"5180","title":"Castle Hill (West Yorkshire)","sitetype":"Hillfort","cond":"3","amb":"4","acc":"4","icon":"tr13"}},{"type":"Feature","geometry":{"type":"Point","coordinates":[-1.7484388785139,53.23082338337]},"properties":{"sid":"5416","title":"Demons Dale Cave","sitetype":"Cave or Rock Shelter","cond":"3","amb":"4","acc":"0","icon":"tr35"}},{"type":"Feature","geometry":{"type":"Point","coordinates":[-1.7392709227671,53.235747562702]},"properties":{"sid":"5420","title":"Fin Cop","sitetype":"Hillfort","cond":"3","amb":"0","acc":"3","icon":"tr13"}},{"type":"Feature","geometry":{"type":"Point","coordinates":[-1.88767333677,53.205417412]},"properties":{"sid":"5427","title":"Dowel Cave","sitetype":"Cave or Rock Shelter","cond":"3","amb":"4","acc":"0","icon":"tr35"}},{"type":"Feature","geometry":{"type":"Point","coordinates":[-2.06717511051,53.2200219348]},"properties":{"sid":"5432","title":"The Plague Stone","sitetype":"Ancient Cross","cond":"3","amb":"4","acc":"5","icon":"tr46"}},{"type":"Feature","geometry":{"type":"Point","coordinates":[-2.11383197844,53.2386741618]},"properties":{"sid":"5434","title":"Sutton Hall","sitetype":"Round Barrow(s)","cond":"3","amb":"2","acc":"4","icon":"tr18"}},{"type":"Feature","geometry":{"type":"Point","coordinates":[-2.0548523722929,53.280693580178]},"properties":{"sid":"5446","title":"Yearnslow","sitetype":"Round Barrow(s)","cond":"3","amb":"4","acc":"3","icon":"tr18"}},{"type":"Feature","geometry":{"type":"Point","coordinates":[-2.05096185841,53.2881559632]},"properties":{"sid":"5447","title":"Highway Man Stone","sitetype":"Standing Stone (Menhir)","cond":"3","amb":"3","acc":"5","icon":"tr21"}},{"type":"Feature","geometry":{"type":"Point","coordinates":[-2.12876913364,53.2233779364]},"properties":{"sid":"5448","title":"Woodhouse End","sitetype":"Round Barrow(s)","cond":"3","amb":"2","acc":"5","icon":"tr18"}},{"type":"Feature","geometry":{"type":"Point","coordinates":[-2.04348275704,53.3088329773]},"properties":{"sid":"5461","title":"Further Harrop","sitetype":"Round Barrow(s)","cond":"3","amb":"3","acc":"5","icon":"tr18"}},{"type":"Feature","geometry":{"type":"Point","coordinates":[-1.74062797677,53.2591214372]},"properties":{"sid":"5462","title":"Ravenscliffe Cave","sitetype":"Cave or Rock Shelter","cond":"3","amb":"4","acc":"0","icon":"tg35"}},{"type":"Feature","geometry":{"type":"Point","coordinates":[-2.0683561010732,53.284237126241]},"properties":{"sid":"5463","title":"Gin Clough Farm","sitetype":"Standing Stone (Menhir)","cond":"3","amb":"2","acc":"5","icon":"tr21"}},{"type":"Feature","geometry":{"type":"Point","coordinates":[-2.0509167551,53.2504032068]},"properties":{"sid":"5485","title":"Charity Lane III","sitetype":"Round Barrow(s)","cond":"3","amb":"4","acc":"4","icon":"tr18"}},{"type":"Feature","geometry":{"type":"Point","coordinates":[-2.05533139385,53.1874794009]},"properties":{"sid":"5487","title":"Bartomley Farm","sitetype":"Long Barrow","cond":"3","amb":"3","acc":"4","icon":"tr15"}},{"type":"Feature","geometry":{"type":"Point","coordinates":[-1.7431572771276,53.187126213562]},"properties":{"sid":"5495","title":"One Ash Shelter","sitetype":"Cave or Rock Shelter","cond":"3","amb":"4","acc":"0","icon":"tr35"}},{"type":"Feature","geometry":{"type":"Point","coordinates":[-1.66198036418,53.1573501119]},"properties":{"sid":"5496","title":"Cratcliff Rocks","sitetype":"Hillfort","cond":"3","amb":"3","acc":"3","icon":"tr13"}},{"type":"Feature","geometry":{"type":"Point","coordinates":[-1.8091791201165,53.350036726298]},"properties":{"sid":"5505","title":"Mam Tor","sitetype":"Hillfort","cond":"3","amb":"3","acc":"3","icon":"tr13"}},{"type":"Feature","geometry":{"type":"Point","coordinates":[-1.6110700619343,53.329780837916]},"properties":{"sid":"5510","title":"Carl Wark","sitetype":"Hillfort","cond":"3","amb":"4","acc":"3","icon":"tr13"}},{"type":"Feature","geometry":{"type":"Point","coordinates":[-2.0930487647692,53.189703052076]},"properties":{"sid":"5513","title":"Bosley Minn 1","sitetype":"Standing Stone (Menhir)","cond":"3","amb":"3","acc":"4","icon":"tr21"}},{"type":"Feature","geometry":{"type":"Point","coordinates":[-1.67091875896,53.1618696046]},"properties":{"sid":"5514","title":"Castle Ring (Derbyshire)","sitetype":"Hillfort","cond":"3","amb":"0","acc":"2","icon":"tr13"}},{"type":"Feature","geometry":{"type":"Point","coordinates":[-2.21450652722,53.2960634632]},"properties":{"sid":"5517","title":"Armada Beacon","sitetype":"Round Barrow(s)","cond":"3","amb":"3","acc":"4","icon":"tr18"}},{"type":"Feature","geometry":{"type":"Point","coordinates":[-2.11979001353,53.2260839671]},"properties":{"sid":"5520","title":"Broad Oak Farm","sitetype":"Round Barrow(s)","cond":"3","amb":"2","acc":"5","icon":"tr18"}},{"type":"Feature","geometry":{"type":"Point","coordinates":[-2.04494365656,53.2710797896]},"properties":{"sid":"5525","title":"Brock Low","sitetype":"Round Barrow(s)","cond":"3","amb":"0","acc":"3","icon":"tr18"}},{"type":"Feature","geometry":{"type":"Point","coordinates":[-1.6492799895737,53.155965074372]},"properties":{"sid":"5545","title":"Rowtor Rocks","sitetype":"Rock Art","cond":"3","amb":"3","acc":"3","icon":"tr29"}},{"type":"Feature","geometry":{"type":"Point","coordinates":[-2.07937746406,53.2422976793]},"properties":{"sid":"5556","title":"Langley Conical mound","sitetype":"Round Barrow(s)","cond":"3","amb":"3","acc":"5","icon":"tr18"}},{"type":"Feature","geometry":{"type":"Point","coordinates":[-2.1304119696522,53.27101676143]},"properties":{"sid":"5564","title":"Lavenham Close","sitetype":"Round Barrow(s)","cond":"3","amb":"2","acc":"5","icon":"tr18"}},{"type":"Feature","geometry":{"type":"Point","coordinates":[-2.07331742895,53.2036496154]},"properties":{"sid":"5565","title":"Clulow Cross","sitetype":"Round Barrow(s)","cond":"3","amb":"3","acc":"5","icon":"tr18"}},{"type":"Feature","geometry":{"type":"Point","coordinates":[-2.25574721578,53.1674417025]},"properties":{"sid":"5568","title":"Loachbrook Farm","sitetype":"Long Barrow","cond":"3","amb":"3","acc":"5","icon":"tr15"}},{"type":"Feature","geometry":{"type":"Point","coordinates":[-2.03448398153,53.3160268898]},"properties":{"sid":"5576","title":"Reed Hill","sitetype":"Round Barrow(s)","cond":"3","amb":"3","acc":"1","icon":"tr18"}},{"type":"Feature","geometry":{"type":"Point","coordinates":[-2.0915015456308,53.306109094959]},"properties":{"sid":"5582","title":"Nab Head (Cheshire)","sitetype":"Round Barrow(s)","cond":"3","amb":"4","acc":"3","icon":"tr18"}},{"type":"Feature","geometry":{"type":"Point","coordinates":[-2.2100011784157,53.295172616848]},"properties":{"sid":"5607","title":"Golden Stone (Alderley Edge)","sitetype":"Standing Stone (Menhir)","cond":"3","amb":"3","acc":"4","icon":"tr21"}},{"type":"Feature","geometry":{"type":"Point","coordinates":[-1.989566637424,53.15491614889]},"properties":{"sid":"5924","title":"Bawd Stone","sitetype":"Natural Stone \/ Erratic \/ Other Natural Feature","cond":"3","amb":"4","acc":"4","icon":"tr36"}},{"type":"Feature","geometry":{"type":"Point","coordinates":[-2.14356626135,53.1694277566]},"properties":{"sid":"6215","title":"Bosley Cloud (1)","sitetype":"Standing Stone (Menhir)","cond":"3","amb":"3","acc":"3","icon":"tr21"}},{"type":"Feature","geometry":{"type":"Point","coordinates":[-2.0406352663523,53.328689983131]},"properties":{"sid":"6916","title":"Bowstones","sitetype":"Ancient Cross","cond":"3","amb":"4","acc":"4","icon":"tr46"}},{"type":"Feature","geometry":{"type":"Point","coordinates":[-1.69480678769,53.3785629862]},"properties":{"sid":"6933","title":"Ladybower Tor","sitetype":"Rock Art","cond":"3","amb":"0","acc":"2","icon":"tr29"}},{"type":"Feature","geometry":{"type":"Point","coordinates":[-1.2352313403766,53.27133436941]},"properties":{"sid":"6936","title":"Markland Grips Hillfort","sitetype":"Hillfort","cond":"3","amb":"0","acc":"3","icon":"tr13"}},{"type":"Feature","geometry":{"type":"Point","coordinates":[-1.79651746688,53.1693412459]},"properties":{"sid":"7411","title":"Custard Field Farm","sitetype":"Round Barrow(s)","cond":"3","amb":"0","acc":"0","icon":"tr18"}},{"type":"Feature","geometry":{"type":"Point","coordinates":[-1.77566868631,53.151325975]},"properties":{"sid":"7414","title":"Moneystones","sitetype":"Round Barrow(s)","cond":"3","amb":"0","acc":"0","icon":"tr18"}},{"type":"Feature","geometry":{"type":"Point","coordinates":[-2.13489044864,53.2647196348]},"properties":{"sid":"7471","title":"West Park Crosses","sitetype":"Ancient Cross","cond":"3","amb":"2","acc":"5","icon":"tr46"}},{"type":"Feature","geometry":{"type":"Point","coordinates":[-1.5956390676454,53.373774177937]},"properties":{"sid":"7504","title":"Ash Cabin standing stone","sitetype":"Standing Stone (Menhir)","cond":"3","amb":"3","acc":"3","icon":"tr21"}},{"type":"Feature","geometry":{"type":"Point","coordinates":[-1.5874981638337,53.256344253045]},"properties":{"sid":"7505","title":"Gardoms Edge 2 (Baslow)","sitetype":"Rock Art","cond":"3","amb":"3","acc":"3","icon":"tr29"}},{"type":"Feature","geometry":{"type":"Point","coordinates":[-1.52076895151,53.2143953772]},"properties":{"sid":"7507","title":"Holymoorside","sitetype":"Rock Art","cond":"3","amb":"3","acc":"0","icon":"tr29"}},{"type":"Feature","geometry":{"type":"Point","coordinates":[-0.652118884927,53.597872201]},"properties":{"sid":"7568","title":"Crosby Stone","sitetype":"Natural Stone \/ Erratic \/ Other Natural Feature","cond":"3","amb":"2","acc":"5","icon":"tg36"}},{"type":"Feature","geometry":{"type":"Point","coordinates":[-0.83468673995126,53.607879085372]},"properties":{"sid":"7569","title":"Crowle Stone","sitetype":"Early Christian Sculptured Stone","cond":"3","amb":"4","acc":"4","icon":"tr43"}},{"type":"Feature","geometry":{"type":"Point","coordinates":[-2.0285343749653,53.396926082732]},"properties":{"sid":"7604","title":"Mellor Hillfort","sitetype":"Hillfort","cond":"3","amb":"3","acc":"2","icon":"tr13"}},{"type":"Feature","geometry":{"type":"Point","coordinates":[-2.0546046871686,53.438443963998]},"properties":{"sid":"7605","title":"Hangingbank, Werneth Low","sitetype":"Ancient Village or Settlement","cond":"3","amb":"3","acc":"4","icon":"tr2"}},{"type":"Feature","geometry":{"type":"Point","coordinates":[-1.96080703328,53.4553485753]},"properties":{"sid":"7748","title":"Mouselow Castle","sitetype":"Hillfort","cond":"3","amb":"3","acc":"4","icon":"tg13"}},{"type":"Feature","geometry":{"type":"Point","coordinates":[-1.88980312232,53.5424919391]},"properties":{"sid":"7806","title":"Black Hill","sitetype":"Cairn","cond":"3","amb":"4","acc":"3","icon":"tg7"}},{"type":"Feature","geometry":{"type":"Point","coordinates":[-1.99093399489,53.4149063266]},"properties":{"sid":"7809","title":"Chisworth Cupmarked stone","sitetype":"Rock Art","cond":"3","amb":"3","acc":"4","icon":"tr29"}},{"type":"Feature","geometry":{"type":"Point","coordinates":[-2.03166670821,53.5632113522]},"properties":{"sid":"7812","title":"Delph Tumulus","sitetype":"Round Barrow(s)","cond":"3","amb":"2","acc":"5","icon":"tg18"}},{"type":"Feature","geometry":{"type":"Point","coordinates":[-1.90037256712,53.5398046835]},"properties":{"sid":"7814","title":"Holgate Howe Barrow","sitetype":"Round Barrow(s)","cond":"3","amb":"3","acc":"2","icon":"tg18"}},{"type":"Feature","geometry":{"type":"Point","coordinates":[-1.90490737121,53.5362130247]},"properties":{"sid":"7815","title":"Holgate Howe Cup &amp; Ringmarks","sitetype":"Rock Art","cond":"3","amb":"3","acc":"2","icon":"tg29"}},{"type":"Feature","geometry":{"type":"Point","coordinates":[-2.35321159251,53.5590980238]},"properties":{"sid":"7818","title":"Radcliffe","sitetype":"Hillfort","cond":"3","amb":"3","acc":"4","icon":"tg13"}},{"type":"Feature","geometry":{"type":"Point","coordinates":[-2.09367231116,53.6108166015]},"properties":{"sid":"7820","title":"Tunshill Tolmen","sitetype":"Holed Stone","cond":"3","amb":"3","acc":"4","icon":"tr14"}},{"type":"Feature","geometry":{"type":"Point","coordinates":[-2.04812543015,53.4328738918]},"properties":{"sid":"7821","title":"Werneth Low Cairn","sitetype":"Cairn","cond":"3","amb":"3","acc":"4","icon":"tg7"}},{"type":"Feature","geometry":{"type":"Point","coordinates":[-0.889155315864,53.3171549412]},"properties":{"sid":"7887","title":"Castle Hill (Nottinghamshire)","sitetype":"Hillfort","cond":"3","amb":"3","acc":"3","icon":"tg13"}},{"type":"Feature","geometry":{"type":"Point","coordinates":[-2.2961415960596,53.456605200856]},"properties":{"sid":"8365","title":"The Great Stone (Trafford)","sitetype":"Natural Stone \/ Erratic \/ Other Natural Feature","cond":"3","amb":"2","acc":"5","icon":"tr36"}},{"type":"Feature","geometry":{"type":"Point","coordinates":[-1.8184760284541,53.636782077081]},"properties":{"sid":"8403","title":"Crosland Moor Holy Well","sitetype":"Holy Well or Sacred Spring","cond":"3","amb":"3","acc":"4","icon":"tr45"}},{"type":"Feature","geometry":{"type":"Point","coordinates":[-2.07713838911,53.6611623679]},"properties":{"sid":"8412","title":"Snoddle Hill","sitetype":"Cairn","cond":"3","amb":"3","acc":"2","icon":"tg7"}},{"type":"Feature","geometry":{"type":"Point","coordinates":[-2.01803933266,53.4715327452]},"properties":{"sid":"8415","title":"Buckton Edge","sitetype":"Cairn","cond":"3","amb":"3","acc":"2","icon":"tg7"}},{"type":"Feature","geometry":{"type":"Point","coordinates":[-2.01051296705,53.4958024223]},"properties":{"sid":"8416","title":"Harridge Pike","sitetype":"Cairn","cond":"3","amb":"3","acc":"2","icon":"tg7"}},{"type":"Feature","geometry":{"type":"Point","coordinates":[-2.01653566947,53.4787237205]},"properties":{"sid":"8417","title":"Hobson Moor Cairn I","sitetype":"Cairn","cond":"3","amb":"3","acc":"3","icon":"tg7"}},{"type":"Feature","geometry":{"type":"Point","coordinates":[-2.01502632716,53.4715331686]},"properties":{"sid":"8418","title":"Hobson Moor Cairn II","sitetype":"Cairn","cond":"3","amb":"3","acc":"3","icon":"tg7"}},{"type":"Feature","geometry":{"type":"Point","coordinates":[-2.06017415837,53.4382615062]},"properties":{"sid":"8419","title":"Lower Higham Farm","sitetype":"Cairn","cond":"3","amb":"3","acc":"4","icon":"tg7"}},{"type":"Feature","geometry":{"type":"Point","coordinates":[-2.2545813204164,53.630760764741]},"properties":{"sid":"8420","title":"Wind Hill Cheesden","sitetype":"Round Barrow(s)","cond":"3","amb":"3","acc":"2","icon":"tr18"}},{"type":"Feature","geometry":{"type":"Point","coordinates":[-2.0478578077185,53.195572640357]},"properties":{"sid":"10244","title":"Allgreave","sitetype":"Standing Stone (Menhir)","cond":"3","amb":"3","acc":"2","icon":"tr21"}},{"type":"Feature","geometry":{"type":"Point","coordinates":[-2.35046839055,53.6289452889]},"properties":{"sid":"11099","title":"Whippalow Hill","sitetype":"Barrow Cemetery","cond":"3","amb":"4","acc":"3","icon":"tr4"}},{"type":"Feature","geometry":{"type":"Point","coordinates":[-2.36256420834,53.6288193557]},"properties":{"sid":"11100","title":"Dodd Lee","sitetype":"Barrow Cemetery","cond":"3","amb":"4","acc":"4","icon":"tr4"}},{"type":"Feature","geometry":{"type":"Point","coordinates":[-2.37202921868,53.6390369088]},"properties":{"sid":"11111","title":"Carve Hill Low","sitetype":"Barrow Cemetery","cond":"3","amb":"4","acc":"3","icon":"tr4"}},{"type":"Feature","geometry":{"type":"Point","coordinates":[-1.87493024388,53.3143487056]},"properties":{"sid":"11451","title":"Ebbing and Flowing Well (Chapel)","sitetype":"Holy Well or Sacred Spring","cond":"3","amb":"2","acc":"5","icon":"tr45"}},{"type":"Feature","geometry":{"type":"Point","coordinates":[-1.79931103118,53.2439535638]},"properties":{"sid":"11473","title":"Priestcliffe Low","sitetype":"Round Barrow(s)","cond":"3","amb":"4","acc":"4","icon":"tr18"}},{"type":"Feature","geometry":{"type":"Point","coordinates":[-1.9829521762,53.4351296394]},"properties":{"sid":"11517","title":"Hargate Hill","sitetype":"Standing Stone (Menhir)","cond":"3","amb":"3","acc":"5","icon":"tr21"}},{"type":"Feature","geometry":{"type":"Point","coordinates":[-1.89173265643,53.3771058325]},"properties":{"sid":"12172","title":"Kinderlow Bowl Barrow","sitetype":"Round Barrow(s)","cond":"3","amb":"3","acc":"2","icon":"tr18"}},{"type":"Feature","geometry":{"type":"Point","coordinates":[-1.9923030264978,53.41527494953]},"properties":{"sid":"12336","title":"Robin Hood's Picking Rods","sitetype":"Ancient Cross","cond":"3","amb":"3","acc":"5","icon":"tr46"}},{"type":"Feature","geometry":{"type":"Point","coordinates":[-1.88433828388,53.3321557597]},"properties":{"sid":"12513","title":"Mag Low","sitetype":"Round Barrow(s)","cond":"3","amb":"2","acc":"3","icon":"tr18"}},{"type":"Feature","geometry":{"type":"Point","coordinates":[-1.87529476803,53.3438319253]},"properties":{"sid":"12517","title":"Green Low ringcairn","sitetype":"Ring Cairn","cond":"3","amb":"4","acc":"2","icon":"tr28"}},{"type":"Feature","geometry":{"type":"Point","coordinates":[-2.00821932845,53.3323011442]},"properties":{"sid":"13173","title":"The Dipping Stone","sitetype":"Ancient Cross","cond":"3","amb":"3","acc":"4","icon":"tr46"}},{"type":"Feature","geometry":{"type":"Point","coordinates":[-2.3175538079,53.2320129144]},"properties":{"sid":"13296","title":"Axstone cross","sitetype":"Ancient Cross","cond":"3","amb":"2","acc":"1","icon":"tr46"}},{"type":"Feature","geometry":{"type":"Point","coordinates":[-1.73072501245,53.4038174003]},"properties":{"sid":"13772","title":"Pike Low","sitetype":"Cairn","cond":"3","amb":"4","acc":"3","icon":"tr7"}},{"type":"Feature","geometry":{"type":"Point","coordinates":[-1.74236276313,53.3197093716]},"properties":{"sid":"13861","title":"Hazlebadge Round Barrow 1","sitetype":"Round Barrow(s)","cond":"3","amb":"3","acc":"4","icon":"tr18"}},{"type":"Feature","geometry":{"type":"Point","coordinates":[-1.82789903238,53.3270541734]},"properties":{"sid":"14296","title":"Eldon Hill","sitetype":"Round Barrow(s)","cond":"3","amb":"4","acc":"5","icon":"tr18"}},{"type":"Feature","geometry":{"type":"Point","coordinates":[-1.880195086761,53.202713487147]},"properties":{"sid":"32984","title":"Hatch-a-way","sitetype":"Cairn","cond":"3","amb":"5","acc":"4","icon":"tr7"}},{"type":"Feature","geometry":{"type":"Point","coordinates":[-1.64016337944,53.2089726271]},"properties":{"sid":"14518","title":"Calton Pasture II","sitetype":"Round Barrow(s)","cond":"3","amb":"4","acc":"4","icon":"tr18"}},{"type":"Feature","geometry":{"type":"Point","coordinates":[-1.72820303156,53.3274082699]},"properties":{"sid":"14678","title":"The Grey Ditch","sitetype":"Misc. Earthwork","cond":"3","amb":"3","acc":"4","icon":"tr59"}},{"type":"Feature","geometry":{"type":"Point","coordinates":[-1.72503710251,53.2592663136]},"properties":{"sid":"14702","title":"Rolley Low","sitetype":"Round Barrow(s)","cond":"3","amb":"2","acc":"2","icon":"tr18"}},{"type":"Feature","geometry":{"type":"Point","coordinates":[-1.72778436441,53.251542239]},"properties":{"sid":"14704","title":"Castlegate Lane","sitetype":"Round Barrow(s)","cond":"3","amb":"2","acc":"1","icon":"tr18"}},{"type":"Feature","geometry":{"type":"Point","coordinates":[-1.90501566254,53.4876757997]},"properties":{"sid":"14904","title":"Highstones earthwork","sitetype":"Misc. Earthwork","cond":"3","amb":"5","acc":"5","icon":"tr59"}},{"type":"Feature","geometry":{"type":"Point","coordinates":[-1.4330421786947,53.393787075294]},"properties":{"sid":"15515","title":"Darnall Common","sitetype":"Modern Stone Circle etc","cond":"3","amb":"4","acc":"4","icon":"tr60"}},{"type":"Feature","geometry":{"type":"Point","coordinates":[-1.6788100324425,53.212750431801]},"properties":{"sid":"16233","title":"Bakewell Churchyard","sitetype":"Ancient Cross","cond":"3","amb":"3","acc":"4","icon":"tr46"}},{"type":"Feature","geometry":{"type":"Point","coordinates":[-1.7422698140456,53.347619032925]},"properties":{"sid":"16724","title":"St Peter (Hope)","sitetype":"Ancient Cross","cond":"3","amb":"4","acc":"5","icon":"tr46"}},{"type":"Feature","geometry":{"type":"Point","coordinates":[-2.0040146704966,53.330323863613]},"properties":{"sid":"16738","title":"Hawkhurst Head","sitetype":"Standing Stone (Menhir)","cond":"3","amb":"4","acc":"4","icon":"tr21"}},{"type":"Feature","geometry":{"type":"Point","coordinates":[-1.5717527603126,53.567213832128]},"properties":{"sid":"16751","title":"All Saints (Cawthorne)","sitetype":"Ancient Cross","cond":"3","amb":"3","acc":"5","icon":"tr46"}},{"type":"Feature","geometry":{"type":"Point","coordinates":[-2.0921745663256,53.40920809738]},"properties":{"sid":"16864","title":"St Chad's Well (Chadkirk)","sitetype":"Holy Well or Sacred Spring","cond":"3","amb":"3","acc":"4","icon":"tr45"}},{"type":"Feature","geometry":{"type":"Point","coordinates":[-1.8786802998751,53.209004157879]},"properties":{"sid":"16896","title":"Harley Grange Tumulus","sitetype":"Round Barrow(s)","cond":"3","amb":"4","acc":"3","icon":"tr18"}},{"type":"Feature","geometry":{"type":"Point","coordinates":[-1.7827460093294,53.230441331013]},"properties":{"sid":"17905","title":"Taddington Barrow","sitetype":"Round Barrow(s)","cond":"3","amb":"3","acc":"4","icon":"tr18"}},{"type":"Feature","geometry":{"type":"Point","coordinates":[-1.8383641244555,53.219473338339]},"properties":{"sid":"17906","title":"Nether Low","sitetype":"Round Barrow(s)","cond":"3","amb":"3","acc":"4","icon":"tr18"}},{"type":"Feature","geometry":{"type":"Point","coordinates":[-0.59944098741735,53.408494402429]},"properties":{"sid":"28228","title":"St. Helen's Well (Hemswell)","sitetype":"Holy Well or Sacred Spring","cond":"3","amb":"4","acc":"4","icon":"tr45"}},{"type":"Feature","geometry":{"type":"Point","coordinates":[-1.7011427024084,53.160151413187]},"properties":{"sid":"18230","title":"Larks Low Bowl Barrow","sitetype":"Round Barrow(s)","cond":"3","amb":"3","acc":"4","icon":"tr18"}},{"type":"Feature","geometry":{"type":"Point","coordinates":[-1.6800212213483,53.184816181369]},"properties":{"sid":"18231","title":"Haddon Fields Bowl Barrow 1","sitetype":"Round Barrow(s)","cond":"3","amb":"3","acc":"4","icon":"tr18"}},{"type":"Feature","geometry":{"type":"Point","coordinates":[-1.6763743867061,53.192177252137]},"properties":{"sid":"18232","title":"Haddon Fields Bowl Barrow 2","sitetype":"Round Barrow(s)","cond":"3","amb":"3","acc":"5","icon":"tr18"}},{"type":"Feature","geometry":{"type":"Point","coordinates":[-1.9202844611455,53.381622543748]},"properties":{"sid":"33689","title":"Upper Dole Field Well","sitetype":"Holy Well or Sacred Spring","cond":"3","amb":"4","acc":"4","icon":"tr45"}},{"type":"Feature","geometry":{"type":"Point","coordinates":[-2.0449161800902,53.245012358472]},"properties":{"sid":"6333495","title":"Toot Hill","sitetype":"Ancient Village or Settlement","cond":"3","amb":"3","acc":"1","icon":"tr2"}},{"type":"Feature","geometry":{"type":"Point","coordinates":[-2.1421929419113,53.156755023714]},"properties":{"sid":"473021467","title":"The Bridestones (Cheshire)","sitetype":"Chambered Tomb","cond":"3","amb":"3","acc":"4","icon":"tr8"}},{"type":"Feature","geometry":{"type":"Point","coordinates":[-2.0678113663132,53.205693358019]},"properties":{"sid":"2146410618","title":"Bullstones","sitetype":"Stone Circle","cond":"3","amb":"4","acc":"4","icon":"tr23"}},{"type":"Feature","geometry":{"type":"Point","coordinates":[-1.6931302923269,53.300096455374]},"properties":{"sid":"18392","title":"Derwic Well","sitetype":"Holy Well or Sacred Spring","cond":"3","amb":"4","acc":"4","icon":"tr45"}},{"type":"Feature","geometry":{"type":"Point","coordinates":[-1.6576158289276,53.329923371273]},"properties":{"sid":"18478","title":"Healing Spring","sitetype":"Holy Well or Sacred Spring","cond":"3","amb":"4","acc":"4","icon":"tr45"}},{"type":"Feature","geometry":{"type":"Point","coordinates":[-1.7914635666315,53.286187370657]},"properties":{"sid":"18524","title":"Ebbing and Flowing well","sitetype":"Holy Well or Sacred Spring","cond":"3","amb":"4","acc":"1","icon":"tr45"}},{"type":"Feature","geometry":{"type":"Point","coordinates":[-1.4700316054394,53.442495558063]},"properties":{"sid":"18517","title":"Ecclesfield","sitetype":"Ancient Cross","cond":"3","amb":"3","acc":"5","icon":"tr46"}},{"type":"Feature","geometry":{"type":"Point","coordinates":[-1.687030715002,53.208655377518]},"properties":{"sid":"18537","title":"St Peter's Well (Bakewell)","sitetype":"Holy Well or Sacred Spring","cond":"3","amb":"3","acc":"5","icon":"tr45"}},{"type":"Feature","geometry":{"type":"Point","coordinates":[-1.8004717293141,53.284405011644]},"properties":{"sid":"18541","title":"Wishing Well","sitetype":"Ancient Cross","cond":"3","amb":"4","acc":"5","icon":"tr46"}},{"type":"Feature","geometry":{"type":"Point","coordinates":[-1.208930399684,53.346040712528]},"properties":{"sid":"18576","title":"Dead Man's Cave\/Anston Stones Wood","sitetype":"Cave or Rock Shelter","cond":"3","amb":"4","acc":"3","icon":"tr35"}},{"type":"Feature","geometry":{"type":"Point","coordinates":[-1.6485935359628,53.514162892576]},"properties":{"sid":"18664","title":"Cubley Cross","sitetype":"Ancient Cross","cond":"3","amb":"3","acc":"3","icon":"tr46"}},{"type":"Feature","geometry":{"type":"Point","coordinates":[-1.8532848604419,53.191896806422]},"properties":{"sid":"18746","title":"Fox Hole Cave (Earl Sterndale)","sitetype":"Cave or Rock Shelter","cond":"3","amb":"4","acc":"3","icon":"tr35"}},{"type":"Feature","geometry":{"type":"Point","coordinates":[-2.3748843379839,53.59601905474]},"properties":{"sid":"18818","title":"Dry Hillock","sitetype":"Marker Stone","cond":"3","amb":"3","acc":"4","icon":"tr67"}},{"type":"Feature","geometry":{"type":"Point","coordinates":[-2.2087954980858,53.661903715943]},"properties":{"sid":"18858","title":"Hamer Hill","sitetype":"Stone Circle","cond":"3","amb":"0","acc":"0","icon":"tr23"}},{"type":"Feature","geometry":{"type":"Point","coordinates":[-2.0004088798519,53.194413802385]},"properties":{"sid":"22442","title":"Roaches Stone carving","sitetype":"Carving","cond":"3","amb":"0","acc":"3","icon":"tr30"}},{"type":"Feature","geometry":{"type":"Point","coordinates":[-1.6707597947568,53.358454461074]},"properties":{"sid":"22978","title":"The Old  Woman Stone","sitetype":"Standing Stone (Menhir)","cond":"3","amb":"4","acc":"3","icon":"tr21"}},{"type":"Feature","geometry":{"type":"Point","coordinates":[-0.8174880192777,53.509282183849]},"properties":{"sid":"28350","title":"Holy Well (Lower Burnham)","sitetype":"Holy Well or Sacred Spring","cond":"3","amb":"4","acc":"3","icon":"tr45"}},{"type":"Feature","geometry":{"type":"Point","coordinates":[-1.736335220665,53.225853387673]},"properties":{"sid":"28363","title":"Skinner's Well","sitetype":"Holy Well or Sacred Spring","cond":"3","amb":"4","acc":"4","icon":"tr45"}},{"type":"Feature","geometry":{"type":"Point","coordinates":[-1.2477650712889,53.592069128826]},"properties":{"sid":"28441","title":"Little John's Well (Hampole)","sitetype":"Holy Well or Sacred Spring","cond":"3","amb":"3","acc":"3","icon":"tr45"}},{"type":"Feature","geometry":{"type":"Point","coordinates":[-1.9356703582392,53.377056599241]},"properties":{"sid":"28625","title":"Whitworth Well","sitetype":"Holy Well or Sacred Spring","cond":"3","amb":"4","acc":"4","icon":"tr45"}},{"type":"Feature","geometry":{"type":"Point","coordinates":[-1.7401706291889,53.334625854116]},"properties":{"sid":"28647","title":"Bath Spring","sitetype":"Holy Well or Sacred Spring","cond":"3","amb":"3","acc":"5","icon":"tg45"}},{"type":"Feature","geometry":{"type":"Point","coordinates":[-1.9177491794267,53.371014287071]},"properties":{"sid":"28854","title":"Fog Field Well","sitetype":"Holy Well or Sacred Spring","cond":"3","amb":"5","acc":"3","icon":"tr45"}},{"type":"Feature","geometry":{"type":"Point","coordinates":[-1.8853588451045,53.371634826829]},"properties":{"sid":"28857","title":"Edale Cross","sitetype":"Ancient Cross","cond":"3","amb":"4","acc":"2","icon":"tr46"}},{"type":"Feature","geometry":{"type":"Point","coordinates":[-2.1500560683755,53.314139514636]},"properties":{"sid":"28876","title":"Adlington Hall pre-Norman cross","sitetype":"Ancient Cross","cond":"3","amb":"4","acc":"4","icon":"tr46"}},{"type":"Feature","geometry":{"type":"Point","coordinates":[-1.9397480885273,53.438261732158]},"properties":{"sid":"28873","title":"Carr House Lane standing stone","sitetype":"Standing Stone (Menhir)","cond":"3","amb":"0","acc":"0","icon":"tg21"}},{"type":"Feature","geometry":{"type":"Point","coordinates":[-1.868295124438,53.665609327709]},"properties":{"sid":"29823","title":"St Helen's Well (Stainland)","sitetype":"Holy Well or Sacred Spring","cond":"3","amb":"4","acc":"5","icon":"tg45"}},{"type":"Feature","geometry":{"type":"Point","coordinates":[-1.5320993214867,53.411294533112]},"properties":{"sid":"31131","title":"Wadsley Common","sitetype":"Stone Circle","cond":"3","amb":"3","acc":"3","icon":"tr23"}},{"type":"Feature","geometry":{"type":"Point","coordinates":[-1.9173125210184,53.363643326958]},"properties":{"sid":"32443","title":"Mount Famine burial cist","sitetype":"Cist","cond":"3","amb":"4","acc":"3","icon":"tr69"}},{"type":"Feature","geometry":{"type":"Point","coordinates":[-1.8841973661174,53.384289650817]},"properties":{"sid":"32590","title":"Cluther Rocks","sitetype":"Ancient Mine, Quarry or other Industry","cond":"3","amb":"0","acc":"2","icon":"tr31"}},{"type":"Feature","geometry":{"type":"Point","coordinates":[-2.046875278352,53.662975736676]},"properties":{"sid":"33796","title":"Byron Edge","sitetype":"Rock Art","cond":"3","amb":"0","acc":"2","icon":"tr29"}},{"type":"Feature","geometry":{"type":"Point","coordinates":[-1.7248592469587,53.380433686142]},"properties":{"sid":"34140","title":"Crook Hill","sitetype":"Stone Circle","cond":"3","amb":"4","acc":"4","icon":"tr23"}},{"type":"Feature","geometry":{"type":"Point","coordinates":[-1.6295613386567,53.448489515846]},"properties":{"sid":"34468","title":"Bar Dyke (Yorkshire)","sitetype":"Misc. Earthwork","cond":"3","amb":"0","acc":"5","icon":"tr59"}},{"type":"Feature","geometry":{"type":"Point","coordinates":[-1.729,53.306]},"properties":{"sid":"34536","title":"Crow Chin cairns","sitetype":"Cairn","cond":"3","amb":"5","acc":"3","icon":"tr7"}},{"type":"Feature","geometry":{"type":"Point","coordinates":[-1.5998982601819,53.239855987813]},"properties":{"sid":"35104","title":"Dobb Edge Cup and Ring","sitetype":"Rock Art","cond":"3","amb":"0","acc":"4","icon":"tr29"}},{"type":"Feature","geometry":{"type":"Point","coordinates":[-1.8712288820174,53.197310835379]},"properties":{"sid":"35431","title":"Hitter hill","sitetype":"Cairn","cond":"3","amb":"5","acc":"4","icon":"tr7"}},{"type":"Feature","geometry":{"type":"Point","coordinates":[-2.2071719092051,53.639436051911]},"properties":{"sid":"35513","title":"Hunger Hill Cairn","sitetype":"Cairn","cond":"3","amb":"4","acc":"2","icon":"tr7"}},{"type":"Feature","geometry":{"type":"Point","coordinates":[-1.904741382235,53.408037578971]},"properties":{"sid":"35546","title":"Kinder Scout I","sitetype":"Round Barrow(s)","cond":"3","amb":"4","acc":"2","icon":"tg18"}},{"type":"Feature","geometry":{"type":"Point","coordinates":[-1.9003859496822,53.405067813252]},"properties":{"sid":"35548","title":"Kinder Scout II","sitetype":"Round Barrow(s)","cond":"3","amb":"4","acc":"2","icon":"tg18"}},{"type":"Feature","geometry":{"type":"Point","coordinates":[-1.1756724091827,53.483074715407]},"properties":{"sid":"36794","title":"Edlington Woods","sitetype":"Cave or Rock Shelter","cond":"3","amb":"4","acc":"4","icon":"tr35"}},{"type":"Feature","geometry":{"type":"Point","coordinates":[-1.8215377137088,53.268258584972]},"properties":{"sid":"43280","title":"Wormhill, Derbyshire","sitetype":"Sculptured Stone","cond":"3","amb":"4","acc":"4","icon":"tg44"}},{"type":"Feature","geometry":{"type":"Point","coordinates":[-1.8490114208373,53.219747955002]},"properties":{"sid":"45635","title":"Modern Stone Circle near Red Hurst","sitetype":"Modern Stone Circle etc","cond":"3","amb":"4","acc":"3","icon":"tr60"}},{"type":"Feature","geometry":{"type":"Point","coordinates":[-2.056225524176,53.650100631837]},"properties":{"sid":"46877","title":"Jacob's Well (Lydgate)","sitetype":"Holy Well or Sacred Spring","cond":"3","amb":"2","acc":"5","icon":"tr45"}},{"type":"Feature","geometry":{"type":"Point","coordinates":[-1.6639188445114,53.158074710496]},"properties":{"sid":"48382","title":"Robin Hoods Settlement","sitetype":"Ancient Village or Settlement","cond":"3","amb":"5","acc":"4","icon":"tr2"}},{"type":"Feature","geometry":{"type":"Point","coordinates":[-1.8296709926434,53.172017953765]},"properties":{"sid":"52598","title":"Pilsburry holed standing stone","sitetype":"Holed Stone","cond":"3","amb":"5","acc":"4","icon":"tr14"}},{"type":"Feature","geometry":{"type":"Point","coordinates":[-1.6320252526089,53.162654785134]},"properties":{"sid":"155","title":"Stanton Moor 4","sitetype":"Stone Circle","cond":"2","amb":"2","acc":"3","icon":"tr23"}},{"type":"Feature","geometry":{"type":"Point","coordinates":[-1.6289720127542,53.169836491998]},"properties":{"sid":"294","title":"Stanton Moor 1","sitetype":"Stone Circle","cond":"2","amb":"3","acc":"2","icon":"tr23"}},{"type":"Feature","geometry":{"type":"Point","coordinates":[-1.5966887903346,53.372438416092]},"properties":{"sid":"295","title":"Ash Cabin Flat","sitetype":"Stone Circle","cond":"2","amb":"1","acc":"2","icon":"tr23"}},{"type":"Feature","geometry":{"type":"Point","coordinates":[-1.5671161253435,53.27678455466]},"properties":{"sid":"300","title":"Barbrook 4","sitetype":"Ring Cairn","cond":"2","amb":"3","acc":"2","icon":"tr28"}},{"type":"Feature","geometry":{"type":"Point","coordinates":[-1.59658904462,53.2731035415]},"properties":{"sid":"301","title":"Barbrook 5","sitetype":"Ring Cairn","cond":"2","amb":"3","acc":"2","icon":"tr28"}},{"type":"Feature","geometry":{"type":"Point","coordinates":[-1.5692552618139,53.307165426476]},"properties":{"sid":"302","title":"Brown Edge","sitetype":"Stone Circle","cond":"2","amb":"3","acc":"1","icon":"tr23"}},{"type":"Feature","geometry":{"type":"Point","coordinates":[-1.65329340796,53.3074390823]},"properties":{"sid":"305","title":"Eyam Moor II","sitetype":"Stone Circle","cond":"2","amb":"1","acc":"3","icon":"tr23"}},{"type":"Feature","geometry":{"type":"Point","coordinates":[-1.6533079594178,53.305641375449]},"properties":{"sid":"306","title":"Eyam Moor III","sitetype":"Stone Circle","cond":"2","amb":"3","acc":"3","icon":"tr23"}},{"type":"Feature","geometry":{"type":"Point","coordinates":[-1.5789747294603,53.234390649208]},"properties":{"sid":"308","title":"Gibbet Moor South","sitetype":"Ancient Village or Settlement","cond":"2","amb":"3","acc":"1","icon":"tr2"}},{"type":"Feature","geometry":{"type":"Point","coordinates":[-1.6779141799751,53.378078201566]},"properties":{"sid":"310","title":"Seven Stones Of Hordron","sitetype":"Stone Circle","cond":"2","amb":"5","acc":"1","icon":"tr23"}},{"type":"Feature","geometry":{"type":"Point","coordinates":[-1.6817064438137,53.321001301911]},"properties":{"sid":"311","title":"Offerton Moor","sitetype":"Stone Circle","cond":"2","amb":"2","acc":"2","icon":"tr23"}},{"type":"Feature","geometry":{"type":"Point","coordinates":[-1.6967245592614,53.320141516553]},"properties":{"sid":"313","title":"Smelting Hill","sitetype":"Stone Circle","cond":"2","amb":"4","acc":"3","icon":"tr23"}},{"type":"Feature","geometry":{"type":"Point","coordinates":[-1.8979073469965,53.246056086241]},"properties":{"sid":"314","title":"Staden Low","sitetype":"Misc. Earthwork","cond":"2","amb":"1","acc":"5","icon":"tr59"}},{"type":"Feature","geometry":{"type":"Point","coordinates":[-1.632580402109,53.447599978162]},"properties":{"sid":"315","title":"Bar Dyke Ring","sitetype":"Ring Cairn","cond":"2","amb":"0","acc":"2","icon":"tr28"}},{"type":"Feature","geometry":{"type":"Point","coordinates":[-1.5747651595552,53.205611237113]},"properties":{"sid":"316","title":"Beeley Moor North","sitetype":"Ring Cairn","cond":"2","amb":"0","acc":"2","icon":"tg28"}},{"type":"Feature","geometry":{"type":"Point","coordinates":[-1.5851582533655,53.214636758583]},"properties":{"sid":"318","title":"Beeley Warren 1","sitetype":"Ring Cairn","cond":"2","amb":"3","acc":"2","icon":"tg28"}},{"type":"Feature","geometry":{"type":"Point","coordinates":[-1.5836433983132,53.216429260041]},"properties":{"sid":"319","title":"Beeley Warren 2","sitetype":"Ring Cairn","cond":"2","amb":"3","acc":"2","icon":"tg28"}},{"type":"Feature","geometry":{"type":"Point","coordinates":[-1.5742485985645,53.257744910477]},"properties":{"sid":"320","title":"Birchen Edge 1","sitetype":"Ring Cairn","cond":"2","amb":"0","acc":"2","icon":"tr28"}},{"type":"Feature","geometry":{"type":"Point","coordinates":[-1.5788424735217,53.247873481892]},"properties":{"sid":"321","title":"Birchen Edge 2","sitetype":"Ring Cairn","cond":"2","amb":"3","acc":"2","icon":"tg28"}},{"type":"Feature","geometry":{"type":"Point","coordinates":[-1.5883098616629,53.323250619669]},"properties":{"sid":"322","title":"Ciceley Low I","sitetype":"Ring Cairn","cond":"2","amb":"3","acc":"3","icon":"tr28"}},{"type":"Feature","geometry":{"type":"Point","coordinates":[-1.5883098616629,53.323250619669]},"properties":{"sid":"323","title":"Ciceley Low II","sitetype":"Ring Cairn","cond":"2","amb":"0","acc":"3","icon":"tp28"}},{"type":"Feature","geometry":{"type":"Point","coordinates":[-1.6156229147089,53.324402345876]},"properties":{"sid":"325","title":"Hathersage Moor","sitetype":"Ring Cairn","cond":"2","amb":"0","acc":"2","icon":"tg28"}},{"type":"Feature","geometry":{"type":"Point","coordinates":[-1.6873960202343,53.364162006034]},"properties":{"sid":"330","title":"Bamford Moor North","sitetype":"Ring Cairn","cond":"2","amb":"3","acc":"2","icon":"tg28"}},{"type":"Feature","geometry":{"type":"Point","coordinates":[-1.6217154262941,53.314534195671]},"properties":{"sid":"568","title":"Lawrence Field","sitetype":"Stone Circle","cond":"2","amb":"1","acc":"4","icon":"tr23"}},{"type":"Feature","geometry":{"type":"Point","coordinates":[-2.4305563561756,53.638481071474]},"properties":{"sid":"768","title":"Cheetham Close","sitetype":"Stone Circle","cond":"2","amb":"3","acc":"2","icon":"tr23"}},{"type":"Feature","geometry":{"type":"Point","coordinates":[-1.9343633039708,53.660729117758]},"properties":{"sid":"3440","title":"Ringstone Edge","sitetype":"Stone Circle","cond":"2","amb":"0","acc":"0","icon":"tr23"}},{"type":"Feature","geometry":{"type":"Point","coordinates":[-1.78606857698,53.1648284985]},"properties":{"sid":"4597","title":"Parsley Hay","sitetype":"Round Cairn","cond":"2","amb":"0","acc":"0","icon":"tr19"}},{"type":"Feature","geometry":{"type":"Point","coordinates":[-1.7786315018535,53.156724881419]},"properties":{"sid":"4598","title":"Lean Low","sitetype":"Round Barrow(s)","cond":"2","amb":"0","acc":"0","icon":"tr18"}},{"type":"Feature","geometry":{"type":"Point","coordinates":[-2.01804242691,53.4787234992]},"properties":{"sid":"4997","title":"Stalybridge Cairn","sitetype":"Cairn","cond":"2","amb":"0","acc":"3","icon":"tr7"}},{"type":"Feature","geometry":{"type":"Point","coordinates":[-1.90716149182,53.1937486212]},"properties":{"sid":"5000","title":"Coatestown Barrow","sitetype":"Round Barrow(s)","cond":"2","amb":"0","acc":"0","icon":"tg18"}},{"type":"Feature","geometry":{"type":"Point","coordinates":[-1.99995973343,53.1722112566]},"properties":{"sid":"5006","title":"The Roaches Barrow","sitetype":"Round Barrow(s)","cond":"2","amb":"0","acc":"3","icon":"tg18"}},{"type":"Feature","geometry":{"type":"Point","coordinates":[-1.84743508264,53.1532371561]},"properties":{"sid":"5007","title":"Brund Low","sitetype":"Round Barrow(s)","cond":"2","amb":"0","acc":"0","icon":"tr18"}},{"type":"Feature","geometry":{"type":"Point","coordinates":[-1.8698298222,53.1649492948]},"properties":{"sid":"5008","title":"Booth Low 1","sitetype":"Round Barrow(s)","cond":"2","amb":"0","acc":"0","icon":"tr18"}},{"type":"Feature","geometry":{"type":"Point","coordinates":[-1.86833682625,53.1640487652]},"properties":{"sid":"5009","title":"Booth Low 2","sitetype":"Round Barrow(s)","cond":"2","amb":"0","acc":"0","icon":"tr18"}},{"type":"Feature","geometry":{"type":"Point","coordinates":[-1.8668466692,53.1622493274]},"properties":{"sid":"5010","title":"Booth Low 3","sitetype":"Round Barrow(s)","cond":"2","amb":"0","acc":"0","icon":"tg18"}},{"type":"Feature","geometry":{"type":"Point","coordinates":[-1.532777607,53.2117463569]},"properties":{"sid":"5417","title":"Longside Moor","sitetype":"Cairn","cond":"2","amb":"0","acc":"0","icon":"tr7"}},{"type":"Feature","geometry":{"type":"Point","coordinates":[-1.82901293715,53.2736627797]},"properties":{"sid":"5419","title":"Wind Low","sitetype":"Chambered Cairn","cond":"2","amb":"0","acc":"4","icon":"tr33"}},{"type":"Feature","geometry":{"type":"Point","coordinates":[-1.87531308393,53.3375398874]},"properties":{"sid":"5423","title":"Ford Hall","sitetype":"Cairn","cond":"2","amb":"0","acc":"0","icon":"tg7"}},{"type":"Feature","geometry":{"type":"Point","coordinates":[-1.6664876138,53.154666116928]},"properties":{"sid":"5426","title":"Dudwood","sitetype":"Stone Circle","cond":"2","amb":"0","acc":"0","icon":"tr23"}}]}
